City_ID,City,Lat,Lng,Max Temp,Humidity,Cloudiness,Wind Speed,Country,Date
0,ndibene dahra,15.3338,-15.4766,21.81,10,0,4.79,SN,1738792499
1,valparaiso,-33.0393,-71.6273,28.13,37,0,10.8,CL,1738792502
2,corner brook,48.9667,-57.9484,-13.2,90,100,5.16,CA,1738792503
3,constitucion,-35.3333,-72.4167,20.55,54,11,7.17,CL,1738792504
4,lebu,-37.6167,-73.65,18.46,81,1,4.78,CL,1738792505
5,grytviken,-54.2811,-36.5092,1.62,95,98,5.64,GS,1738792440
6,blackmans bay,-43.0167,147.3167,15.41,73,62,0.45,AU,1738792507
7,weno,7.4515,151.8468,27.97,83,100,4.63,FM,1738792509
8,plymouth,41.8334,-70.8328,-1.08,37,0,4.63,US,1738792510
9,bandarbeyla,9.4942,50.8122,22.66,77,38,6.55,SO,1738792511
10,charlottetown,46.2352,-63.1267,-13.75,59,40,6.71,CA,1738792512
11,adamstown,-25.066,-130.1015,25.29,78,4,6.37,PN,1738792438
12,sale,34.0389,-6.8166,9.38,81,0,0.0,MA,1738792514
13,belyy yar,53.6039,91.3903,-13.06,92,92,0.0,RU,1738792515
14,teknaf,20.8624,92.3058,18.75,59,4,4.09,BD,1738792517
15,byron bay,-28.65,153.6167,24.12,79,32,1.17,AU,1738792518
16,udachny,66.4167,112.4,-23.2,99,100,1.81,RU,1738792446
17,hawaiian paradise park,19.5933,-154.9731,24.93,74,75,4.12,US,1738792520
18,afaahiti,-17.75,-149.2833,26.04,80,88,6.29,PF,1738791970
19,harper,4.375,-7.7169,26.92,84,16,3.6,LR,1738792523
20,jamestown,42.097,-79.2353,-4.13,62,0,2.57,US,1738792524
21,puerto natales,-51.7236,-72.4875,14.25,47,75,2.06,CL,1738792443
22,ayabaca,-4.6398,-79.7149,11.92,88,95,1.82,PE,1738792526
23,kristiansund,63.1115,7.732,5.36,70,40,5.14,NO,1738792527
24,sligo,54.2697,-8.4694,3.26,92,2,3.5,IE,1738792528
25,mossel bay,-34.1831,22.146,19.04,63,100,2.72,ZA,1738792530
26,fort st. john,56.2499,-120.8529,-25.06,77,75,2.06,CA,1738792412
27,arica,-18.475,-70.3042,24.13,64,0,5.14,CL,1738792532
28,antsiranana,-12.2787,49.2917,24.8,87,100,2.63,MG,1738792533
29,markovo,57.3206,107.0881,-40.48,100,95,1.1,RU,1738792534
30,anjozorobe,-18.4,47.8667,18.15,97,100,2.15,MG,1738792536
31,haiku-pauwela,20.9219,-156.3051,23.47,78,40,9.39,US,1738792537
32,waitangi,-43.9535,-176.5597,14.9,83,92,2.68,NZ,1738792539
33,bethel,41.3712,-73.414,-0.71,44,93,1.34,US,1738792540
34,mount gambier,-37.8333,140.7667,17.03,81,11,2.68,AU,1738791979
35,tolanaro,-25.0319,46.9987,26.04,83,40,3.09,MG,1738792543
36,pitkyaranta,61.5734,31.4792,-3.31,96,100,6.67,RU,1738792544
37,wailua homesteads,22.0669,-159.378,23.96,72,20,4.63,US,1738792545
38,isafjordur,66.0755,-23.124,-0.05,87,71,11.96,IS,1738792546
39,hermanus,-34.4187,19.2345,15.45,57,100,4.99,ZA,1738791985
40,zaysan,47.4667,84.8667,-20.22,81,0,0.97,KZ,1738792549
41,road town,18.4167,-64.6167,27.02,69,20,5.14,VG,1738792550
42,cabedelo,-6.9811,-34.8339,24.37,85,100,6.39,BR,1738792551
43,kodiak,57.79,-152.4072,-1.27,86,0,0.0,US,1738792552
44,calama,-22.4667,-68.9333,25.27,19,0,13.38,CL,1738792553
45,santos dumont,-21.4567,-43.5525,19.85,93,44,1.81,BR,1738792555
46,port-aux-francais,-49.35,70.2167,7.32,95,99,9.41,TF,1738792444
47,carnarvon,-24.8667,113.6333,26.05,77,5,7.28,AU,1738792557
48,ilulissat,69.2167,-51.1,-23.99,58,75,4.12,GL,1738792558
49,hilo,19.7297,-155.09,24.49,77,75,4.12,US,1738791875
50,new norfolk,-42.7826,147.0587,16.07,59,44,0.87,AU,1738792560
51,santa terezinha,-29.9002,-50.0904,26.63,88,0,4.48,BR,1738792562
52,lorengau,-2.0226,147.2712,27.83,79,100,3.67,PG,1738792563
53,palangkaraya,-2.2,113.8333,22.96,98,81,0.73,ID,1738792564
54,atafu village,-8.5421,-172.5159,28.26,75,18,7.46,TK,1738792565
55,college,64.8569,-147.8028,-8.85,80,100,0.0,US,1738792566
56,batabano,22.7164,-82.2881,26.5,60,0,0.81,CU,1738792568
57,papatowai,-46.5619,169.4708,13.98,58,56,2.46,NZ,1738792569
58,luderitz,-26.6481,15.1594,20.06,69,92,11.22,NA,1738792570
59,keflavik,64.0049,-22.5624,6.24,70,100,21.61,IS,1738792571
60,mawu,34.4307,104.9176,-8.72,74,100,0.8,CN,1738792572
61,yellowknife,62.456,-114.3525,-3.66,88,100,5.66,CA,1738792574
62,ust-nera,64.5667,143.2,-41.13,98,64,1.58,RU,1738792575
63,colares,38.7992,-9.4469,12.96,69,6,2.82,PT,1738792576
64,akureyri,65.6835,-18.0878,6.96,65,100,15.95,IS,1738792577
65,swift current,50.2834,-107.8014,-20.55,71,100,8.75,CA,1738792578
66,kingston,17.997,-76.7936,31.53,48,20,2.57,JM,1738792385
67,lokhvytsya,50.3678,33.2602,-2.06,94,81,3.74,UA,1738792581
68,invercargill,-46.4,168.35,13.9,74,84,2.24,NZ,1738792582
69,nadym,65.5333,72.5167,-15.66,95,100,3.8,RU,1738792583
70,bilibino,68.0546,166.4372,-42.03,96,7,1.14,RU,1738792584
71,talnakh,69.4865,88.3972,-23.23,97,82,3.32,RU,1738792585
72,iskateley,67.6803,53.1512,-8.92,92,83,7.42,RU,1738792586
73,thulamahashi,-24.7246,31.1994,23.91,80,49,3.05,ZA,1738792588
74,fale old settlement,-9.3852,-171.2468,28.45,75,97,7.79,TK,1738791999
75,tralee,52.2704,-9.7026,3.07,88,1,2.31,IE,1738792591
76,ribeira grande,38.5167,-28.7,18.22,94,75,4.92,PT,1738792592
77,tazacorte,28.629,-17.9293,18.54,77,75,4.63,ES,1738792594
78,margaret river,-33.95,115.0667,19.12,80,0,7.79,AU,1738792595
79,badger,64.8,-147.5333,-8.9,86,100,0.0,US,1738792596
80,east london,-33.0153,27.9116,21.31,90,99,2.4,ZA,1738792445
81,posto fiscal rolim de moura,-13.0833,-62.2667,25.72,94,100,1.37,BR,1738792598
82,jijel,36.8205,5.7667,10.97,87,75,1.03,DZ,1738792599
83,hamilton,39.1834,-84.5333,1.08,89,100,1.79,US,1738792601
84,zemio,5.0314,25.1361,24.71,38,100,0.87,CF,1738792602
85,tannum sands,-23.9504,151.3693,24.3,94,75,1.54,AU,1738792603
86,yagunovskiy,55.2828,85.978,-13.31,85,40,4.0,RU,1738792604
87,longyearbyen,78.2186,15.6401,-0.09,59,20,4.63,SJ,1738792605
88,cidreira,-30.1811,-50.2056,26.49,88,1,4.54,BR,1738792607
89,georgetown,5.4112,100.3354,26.96,78,20,1.03,MY,1738792608
90,minas de marcona,-15.2119,-75.1103,21.64,65,94,6.71,PE,1738792609
91,sangueya,10.7,-14.3667,23.48,67,100,0.7,GN,1738792610
92,rongelap,11.1635,166.8941,26.59,83,93,9.08,MH,1738792611
93,albany,42.6001,-73.9662,-4.68,50,25,0.89,US,1738792612
94,iqaluit,63.7506,-68.5145,-31.15,69,75,1.54,CA,1738792614
95,avarua,-21.2078,-159.775,29.03,84,100,3.6,CK,1738792052
96,awash,8.9833,40.1667,21.19,32,35,1.27,ET,1738792616
97,saipan,15.1355,145.701,27.39,78,0,5.14,MP,1738792617
98,antsohihy,-14.8796,47.9875,22.31,96,100,0.86,MG,1738792618
99,torghay,49.6339,63.4981,-10.64,92,96,6.32,KZ,1738792620
100,nemuro,43.3236,145.575,-0.12,73,10,9.56,JP,1738792621
101,aasiaat,68.7098,-52.8699,-31.45,97,55,1.59,GL,1738792601
102,bredasdorp,-34.5322,20.0403,17.72,53,100,2.32,ZA,1738792623
103,fisterra,42.9049,-9.2629,12.55,75,100,2.43,ES,1738792624
104,urussu,54.5981,53.4631,-13.93,93,83,1.46,RU,1738792625
105,lobujya,27.95,86.8167,-15.09,15,0,1.12,NP,1738792627
106,san luis de la loma,17.2706,-100.8939,29.21,53,0,3.56,MX,1738792628
107,happy valley-goose bay,53.3168,-60.3315,-17.83,50,20,3.09,CA,1738792629
108,pipri,19.8,75.5333,21.32,73,0,1.03,IN,1738792630
109,amurzet,47.6967,131.0981,-17.11,84,100,4.04,RU,1738792631
110,pacific grove,36.6177,-121.9166,14.94,61,0,3.6,US,1738792116
111,dabakala,8.3667,-4.4333,28.39,16,22,1.58,CI,1738792064
112,portland,45.5234,-122.6762,6.27,85,100,6.17,US,1738792026
113,mitu,1.1983,-70.1733,23.32,92,100,2.0,CO,1738792637
114,edinburgh of the seven seas,-37.0676,-12.3116,18.88,95,89,12.04,SH,1738792638
115,dawei,14.0833,98.2,21.33,94,71,1.75,MM,1738792640
116,turpan,42.9333,89.1667,-4.17,60,6,1.31,CN,1738792252
117,whitehorse,60.7161,-135.0538,-20.57,84,75,2.57,CA,1738792347
118,ushuaia,-54.8,-68.3,12.81,58,40,1.03,AR,1738792643
119,sauk rapids,45.5919,-94.1661,-6.59,60,40,2.57,US,1738792644
120,tiksi,71.6872,128.8694,-30.31,97,100,3.27,RU,1738792646
121,itoman,26.1247,127.6694,14.01,54,75,2.06,JP,1738792647
122,chonchi,-42.6128,-73.8092,17.29,67,81,2.89,CL,1738792648
123,yeniseysk,58.4497,92.1703,-24.58,100,99,1.32,RU,1738792649
124,alice springs,-23.7,133.8833,24.75,47,55,2.06,AU,1738792165
125,port elizabeth,-33.918,25.5701,20.17,96,90,1.34,ZA,1738792651
126,dryden,49.7833,-92.7503,-12.84,52,100,2.57,CA,1738792653
127,broome,42.2506,-75.833,-4.08,59,0,2.06,US,1738792654
128,kuanda,56.3161,116.0806,-36.65,95,46,0.25,RU,1738792655
129,owen sound,44.5672,-80.9435,-5.06,70,99,1.34,CA,1738792656
130,sao vicente,-23.9631,-46.3919,27.98,61,20,2.68,BR,1738792657
131,island harbour,50.724,-1.2758,5.67,93,100,0.45,GB,1738792659
132,troitsko-pechorsk,62.7084,56.1964,-14.78,98,100,1.07,RU,1738792660
133,suva,-18.1416,178.4415,25.71,94,75,2.06,FJ,1738792661
134,kabanga,-2.6386,30.4678,15.23,89,99,1.58,TZ,1738792662
135,bikenibeu village,1.3673,173.1241,27.98,83,75,3.09,KI,1738792663
136,sao miguel do iguacu,-25.3481,-54.2378,30.11,55,87,2.92,BR,1738792664
137,thompson,55.7435,-97.8558,-13.91,56,75,6.69,CA,1738792666
138,moose jaw,50.4001,-105.5344,-16.86,85,100,6.17,CA,1738792667
139,grootfontein,-19.5667,18.1167,23.1,56,83,3.44,NA,1738792668
140,west island,-12.1568,96.8225,27.99,89,20,6.17,CC,1738792669
141,dunedin,-45.8742,170.5036,13.22,88,97,1.79,NZ,1738792102
142,la ronge,55.1001,-105.2842,-16.86,55,75,4.12,CA,1738792162
143,motygino,58.1831,94.7592,-19.01,99,100,1.37,RU,1738792673
144,palmares do sul,-30.2578,-50.5097,26.73,84,0,4.85,BR,1738792674
145,val-d'or,48.1002,-77.7828,-12.95,56,20,4.63,CA,1738792675
146,aydincik,36.1437,33.3202,7.97,47,100,10.87,TR,1738792676
147,barclayville,4.6797,-8.2339,26.41,87,15,2.62,LR,1738792677
148,nar'yan-mar,67.6713,53.087,-8.94,92,84,7.42,RU,1738792679
149,sinabang,2.4803,96.3801,25.95,83,97,1.35,ID,1738792680
150,acarau,-2.8856,-40.12,26.47,79,95,4.87,BR,1738792245
151,cide,41.8921,33.0044,2.67,84,99,3.3,TR,1738792682
152,kupang,-10.1667,123.5833,25.32,100,75,1.03,ID,1738792683
153,cuito,-12.3833,16.9333,14.32,94,94,2.31,AO,1738792685
154,grand gaube,-20.0064,57.6608,26.88,87,4,3.73,MU,1738792686
155,opuwo,-18.0607,13.84,19.63,86,100,2.95,NA,1738792687
156,nabire,-3.3667,135.4833,23.84,90,100,0.89,ID,1738792688
157,vorgashor,67.5833,63.95,-13.96,97,98,3.19,RU,1738792439
158,la passe,45.5549,-0.8967,7.75,78,63,5.74,FR,1738792690
159,achacachi,-16.05,-68.6833,11.37,63,57,6.0,BO,1738792692
160,dehui,44.5333,125.7,-22.39,96,89,1.01,CN,1738792693
161,jinghong,21.991,100.7341,12.75,86,4,1.15,CN,1738792694
162,susuman,62.7833,148.1667,-44.81,96,68,0.34,RU,1738792695
163,koath,25.3167,84.2667,15.01,66,0,3.63,IN,1738792696
164,timberwood park,29.7058,-98.4783,23.86,81,100,4.12,US,1738792698
165,richards bay,-28.783,32.0377,24.65,93,93,5.23,ZA,1738792699
166,constantia,44.1833,28.65,-3.5,64,21,6.05,RO,1738792700
167,point pedro,9.8167,80.2333,25.21,76,18,4.8,LK,1738792701
168,bac kan,22.1333,105.8333,12.66,93,100,0.68,VN,1738792702
169,mana,5.6592,-53.7767,24.97,90,98,4.38,GF,1738792311
170,isabela,6.7085,121.9711,25.03,90,100,0.84,PH,1738792705
171,olonkinbyen,70.9221,-8.7187,-1.15,78,77,12.4,SJ,1738792706
172,inebolu,41.9747,33.7608,2.15,96,100,3.99,TR,1738792707
173,stanley,54.868,-1.6985,0.29,91,0,3.09,GB,1738792709
174,el calafate,-50.3408,-72.2768,14.25,48,48,2.36,AR,1738792711
175,sena madureira,-9.0656,-68.6569,28.16,73,85,1.22,BR,1738792712
176,north bend,43.4065,-124.2243,6.8,87,100,5.14,US,1738792713
177,abomsa,9.9833,39.9833,19.15,36,53,2.1,ET,1738792714
178,kachug,53.9606,105.8817,-39.06,100,94,0.46,RU,1738792715
179,amga,60.8953,131.9608,-43.28,100,85,0.54,RU,1738792717
180,puerto baquerizo moreno,-0.9,-89.6,30.55,58,20,5.14,EC,1738792291
181,freetown,8.484,-13.2299,26.84,74,40,2.57,SL,1738792719
182,lompoc,34.6391,-120.4579,15.38,83,100,3.09,US,1738792219
183,utrik,11.2278,169.8474,26.2,83,100,9.63,MH,1738792721
184,mount pearl,47.5166,-52.7813,-8.25,75,75,10.29,CA,1738792130
185,makoua,0.0069,15.6333,25.72,71,100,1.46,CG,1738792724
186,al bawiti,28.3492,28.8659,12.38,60,99,7.92,EG,1738792726
187,sitangkai,4.6628,119.3928,26.8,81,100,4.02,PH,1738792727
188,leava,-14.3,-178.1667,28.36,70,86,1.61,WF,1738792257
189,dapa,9.7594,126.0531,25.36,86,98,2.74,PH,1738792730
190,aberdeen,57.1437,-2.0981,2.92,86,0,1.03,GB,1738792731
191,kas,36.2018,29.6377,6.23,44,11,4.61,TR,1738792732
192,codrington,-38.2667,141.9667,19.47,72,68,3.3,AU,1738792322
193,virac,13.6333,124.2167,20.83,91,92,3.38,PH,1738792734
194,sitka,57.0531,-135.33,3.94,56,0,0.0,US,1738792736
195,anadyr,64.75,177.4833,-37.72,73,0,5.0,RU,1738792737
196,coari,-4.085,-63.1414,23.85,98,100,0.59,BR,1738792738
197,uttarkashi,30.7333,78.45,2.04,49,0,3.25,IN,1738792739
198,dinguiraye,11.3,-10.7167,25.37,20,100,1.56,GN,1738792740
199,port-gentil,-0.7193,8.7815,27.98,83,20,1.03,GA,1738792237
200,as sulayyil,20.4607,45.5779,15.66,13,35,3.23,SA,1738792743
201,boyolangu,-8.1181,111.8935,23.43,93,88,2.73,ID,1738792744
202,ola,59.5833,151.2833,-24.35,80,9,3.69,RU,1738792745
203,cannonvale,-20.2833,148.7,23.66,87,100,4.35,AU,1738792746
204,tura,25.5198,90.2201,15.47,61,0,1.85,IN,1738792747
205,puerto ayora,-0.7393,-90.3518,25.86,92,23,2.24,EC,1738792749
206,tamanrasset,22.785,5.5228,13.95,58,40,2.06,DZ,1738792750
207,neka,36.6508,53.299,5.73,93,75,1.03,IR,1738792751
208,lihue,21.9789,-159.3672,24.3,69,20,4.63,US,1738792752
209,umea,63.8284,20.2597,-1.04,100,0,1.03,SE,1738792753
210,port macquarie,-31.4333,152.9167,25.04,83,40,1.34,AU,1738792754
211,petropavlovsk-kamchatsky,53.0452,158.6483,0.33,34,75,6.0,RU,1738792756
212,gobabis,-22.45,18.9667,21.89,68,95,9.27,NA,1738792267
213,saudarkrokur,65.7461,-19.6394,2.77,75,100,17.12,IS,1738792244
214,hithadhoo,-0.6,73.0833,27.67,65,32,5.74,MV,1738792759
215,pelabuhanratu,-6.9875,106.5514,26.96,71,100,3.73,ID,1738792760
216,roma,43.2128,-75.4557,-6.92,63,75,0.0,US,1738792617
217,thunder bay,48.4001,-89.3168,-11.01,48,75,2.57,CA,1738792763
218,port alfred,-33.5906,26.891,19.54,99,100,1.34,ZA,1738792764
219,kaohsiung,22.6163,120.3133,15.97,82,75,1.03,TW,1738792641
220,nouadhibou,20.931,-17.0347,18.99,63,0,7.72,MR,1738792766
221,gadzhiyevo,69.2551,33.3362,-5.5,82,100,10.59,RU,1738792767
222,miri,4.4148,114.0089,24.08,100,40,0.51,MY,1738792769
223,yuzhno-kurilsk,44.0306,145.8556,-2.31,79,32,5.96,RU,1738792770
224,tequila,20.8833,-103.8333,31.39,14,0,0.57,MX,1738792771
225,caluula,11.9661,50.7569,22.66,70,62,5.14,SO,1738792772
226,muisne,0.6,-80.0333,26.54,79,51,2.35,EC,1738792773
227,trebes,43.2106,2.4417,8.21,61,0,4.63,FR,1738792774
228,cova figueira,14.8905,-24.2934,15.68,67,1,6.46,CV,1738792776
229,guerrero negro,27.9769,-114.0611,17.87,62,0,6.91,MX,1738792777
230,banda aceh,5.5577,95.3222,24.96,78,56,2.97,ID,1738792778
231,sikasso,10.9167,-7.0,25.51,15,72,2.66,ML,1738792779
232,uturoa,-16.7333,-151.4333,28.03,73,71,5.85,PF,1738792780
233,beni,0.5,29.4667,22.07,36,100,0.95,CD,1738792781
234,brookings,44.3114,-96.7984,-7.12,78,100,4.63,US,1738792783
235,porto novo,6.4965,2.6036,28.9,84,42,3.9,BJ,1738792784
236,zaozersk,69.4005,32.4476,-6.49,86,97,9.7,RU,1738792785
237,san patricio,28.017,-97.5169,26.75,59,80,7.47,US,1738792786
238,malvan,16.0667,73.4667,23.71,68,5,4.54,IN,1738792787
239,kavaratti,10.5669,72.642,26.96,73,9,3.77,IN,1738792789
240,labytnangi,66.6572,66.4183,-15.42,97,100,2.72,RU,1738792790
241,eyl,7.9803,49.8164,22.28,79,60,7.49,SO,1738792791
242,levelland,33.5873,-102.378,27.3,7,0,7.47,US,1738792792
243,vadso,70.0744,29.7487,-3.91,86,75,9.77,NO,1738792793
244,preobrazheniye,42.9019,133.9064,-14.99,67,30,4.67,RU,1738792794
245,centenario,-38.8043,-68.14,31.86,25,0,2.06,AR,1738792796
246,mirabad,30.4362,61.8383,10.59,23,0,3.81,AF,1738792797
247,taunsa,30.7048,70.6505,11.45,30,0,2.24,PK,1738792798
248,kapuskasing,49.4169,-82.4331,-7.95,48,75,8.75,CA,1738792799
249,holualoa,19.6228,-155.9522,25.31,65,1,1.34,US,1738792800
250,kabinda,-6.1333,24.4833,20.2,86,100,0.15,CD,1738792801
251,port lincoln,-34.7333,135.8667,18.86,76,0,4.13,AU,1738792803
252,ancud,-41.8697,-73.8203,14.79,73,99,4.4,CL,1738792804
253,zhangye,38.9342,100.4517,-11.43,54,4,2.11,CN,1738792805
254,talcahuano,-36.7167,-73.1167,21.82,64,0,5.66,CL,1738792807
255,andalgala,-27.5819,-66.3165,34.21,32,0,2.75,AR,1738792808
256,lichinga,-13.3128,35.2406,16.84,97,97,1.53,MZ,1738792809
257,punta arenas,-53.15,-70.9167,15.06,41,0,6.69,CL,1738792810
258,whitby,54.4877,-0.615,3.41,83,0,0.45,GB,1738792811
259,oranjemund,-28.55,16.4333,17.0,82,29,8.66,NA,1738792813
260,jayapura,-2.5333,140.7,23.66,92,100,1.38,ID,1738792814
261,klyuchi,52.2667,79.1667,-16.54,83,5,5.1,RU,1738792815
262,gokceada,40.2011,25.909,6.34,64,6,11.35,TR,1738792816
263,landeck,47.1301,10.5636,-2.39,64,1,2.78,AT,1738792818
264,stephenville,32.2207,-98.2023,26.75,56,40,8.23,US,1738792819
265,kufa,32.0347,44.4033,13.02,35,0,4.63,IQ,1738792820
266,bandar lampung,-5.4254,105.258,22.29,97,64,3.35,ID,1738792821
267,warrnambool,-38.3833,142.4833,18.86,80,91,3.12,AU,1738792822
268,midvagur,62.0511,-7.1939,8.46,87,100,10.8,FO,1738792824
269,ceeldheer,3.8488,47.1806,23.53,86,29,8.34,SO,1738792825
270,villa gesell,-37.2639,-56.973,19.1,78,100,8.75,AR,1738792826
271,cabo san lucas,22.8909,-109.9124,21.77,53,0,5.31,MX,1738792794
272,rakops,-21.0167,24.3333,28.2,30,41,1.01,BW,1738792828
273,hasaki,35.7333,140.8333,3.57,34,0,7.44,JP,1738792830
274,cam ranh,11.9214,109.1591,19.98,83,20,2.57,VN,1738792831
275,lockwood,45.8191,-108.4149,-14.77,78,100,2.57,US,1738792832
276,ta`u,-14.2336,-169.5144,27.83,75,100,3.64,AS,1738792833
277,puerto leguizamo,-0.1934,-74.7819,27.35,72,100,1.35,CO,1738792834
278,sepatan,-6.1189,106.575,27.01,83,75,7.72,ID,1738792836
279,benejuzar,38.0799,-0.8285,10.94,85,4,0.45,ES,1738792837
280,murghob,38.1702,73.9667,-30.03,96,84,1.58,TJ,1738792838
281,ilha de mocambique,-15.0342,40.7358,25.63,86,100,2.89,MZ,1738792839
282,wuchuan,21.4571,110.7659,16.14,59,100,4.19,CN,1738792840
283,port saint john's,-31.6229,29.5448,21.93,92,100,4.58,ZA,1738792842
284,huangshi,30.2042,115.0776,3.78,51,9,2.41,CN,1738792818
285,kohima,25.6667,94.1167,9.57,79,0,1.3,IN,1738792844
286,nago,26.5881,127.9761,12.12,59,11,3.24,JP,1738792847
287,smithers,54.7804,-127.1743,-14.82,66,0,2.06,CA,1738792848
288,pakuranga,-36.8833,174.9167,23.3,72,100,2.57,NZ,1738792849
289,hobyo,5.3505,48.5268,23.72,84,19,8.47,SO,1738792850
290,burabay,53.0838,70.3138,-11.56,98,100,2.67,KZ,1738792851
291,taraz,42.9,71.3667,-11.77,85,68,2.0,KZ,1738792853
292,nova xavantina,-14.6667,-52.35,22.83,94,73,1.68,BR,1738792854
293,palu,-0.8917,119.8707,23.59,97,100,0.99,ID,1738792855
294,nagqu,31.5,92.0,-7.22,20,0,3.0,CN,1738792856
295,luganville,-15.5333,167.1667,28.98,69,60,4.93,VU,1738792858
296,edson,53.5835,-116.4356,-19.92,59,0,3.09,CA,1738792859
297,flying fish cove,-10.4217,105.6791,25.82,94,100,6.69,CX,1738792860
298,shipunovo,52.1582,82.2173,-14.96,87,6,4.77,RU,1738792861
299,fort bragg,35.139,-79.006,10.85,61,100,5.14,US,1738792862
300,port mathurin,-19.6833,63.4167,26.88,78,3,2.68,MU,1738792864
301,alofi,-19.0595,-169.9187,27.94,83,40,4.12,NU,1738792865
302,howrah,22.5892,88.3103,22.0,88,19,0.0,IN,1738792866
303,bahia honda,22.9036,-83.1592,25.59,64,4,5.2,CU,1738792867
304,pingliang,35.5392,106.6861,-4.78,55,100,1.21,CN,1738792868
305,mendi,-6.1761,143.6513,14.2,97,100,0.2,PG,1738792869
306,soure,-0.7167,-48.5233,25.88,84,96,4.02,BR,1738792871
307,khorixas,-20.3667,14.9667,21.79,79,100,3.39,NA,1738792872
308,asasa,7.1,39.2,11.68,27,54,0.65,ET,1738792873
309,altay,47.8667,88.1167,-14.2,59,0,3.3,CN,1738792874
310,aykol,38.1751,77.2132,-3.03,45,87,0.44,CN,1738792876
311,mar del plata,-38.0023,-57.5575,22.01,81,100,6.69,AR,1738792877
312,hammerfest,70.6634,23.6821,1.25,86,40,6.69,NO,1738792878
313,petrozavodsk,61.7849,34.3469,-8.3,79,100,1.0,RU,1738792879
314,vilyuchinsk,52.9306,158.4028,1.15,86,100,8.2,RU,1738792880
315,korla,41.7597,86.1469,-8.78,76,100,2.86,CN,1738792882
316,crane,31.3974,-102.3501,28.49,17,0,3.49,US,1738792883
317,arraial do cabo,-22.9661,-42.0278,26.98,65,20,8.23,BR,1738792884
318,santa cruz,-17.8,-63.1667,32.7,58,20,7.2,BO,1738792753
319,ulsteinvik,62.3432,5.8487,5.07,82,72,6.3,NO,1738792886
320,kununurra,-15.7667,128.7333,26.99,78,100,3.09,AU,1738792887
321,olinda,-8.0089,-34.8553,23.85,94,100,1.54,BR,1738792889
322,lisala,2.15,21.5167,27.11,43,82,0.79,CD,1738792890
323,dhidhdhoo,6.8833,73.1,27.04,76,24,3.48,MV,1738792894
324,changli,39.7042,119.1506,-12.2,59,14,2.56,CN,1738792895
325,dudinka,69.4058,86.1778,-21.81,98,99,3.41,RU,1738792851
326,acapulco de juarez,16.8634,-99.8901,28.9,70,0,5.66,MX,1738792898
327,hengchun,22.0042,120.7439,17.86,80,82,7.08,TW,1738792899
328,izobil'nyy,45.3709,41.7084,-0.44,68,100,5.76,RU,1738792900
329,dolisie,-4.1997,12.6739,23.19,97,95,2.02,CG,1738792901
330,merizo village,13.2658,144.6691,27.77,83,100,8.47,GU,1738792902
331,sos'va,59.1766,61.8558,-16.36,100,100,1.7,RU,1738792903
332,puerto deseado,-47.7503,-65.8938,20.38,44,76,12.98,AR,1738792905
333,sisimiut,66.9395,-53.6735,-22.62,96,96,1.98,GL,1738792906
334,touros,-5.1989,-35.4608,27.45,75,100,4.98,BR,1738792907
335,el granada,37.5027,-122.4694,14.33,54,0,6.69,US,1738792908
336,les sables-d'olonne,46.6667,-1.8333,8.28,90,100,3.97,FR,1738792911
337,ampanihy,-24.7,44.75,24.07,94,37,3.07,MG,1738792912
338,popondetta,-8.7537,148.2534,23.93,96,100,1.03,PG,1738792913
339,debre tabor,11.85,38.0167,13.81,39,2,1.49,ET,1738792914
340,tazovsky,67.4667,78.7,-19.66,98,50,3.19,RU,1738792915
341,itacare,-14.2775,-38.9967,26.24,76,47,4.11,BR,1738792917
342,cojutepeque,13.7167,-88.9333,29.93,28,7,2.36,SV,1738792918
343,alotau,-10.3069,150.4462,27.97,79,100,3.55,PG,1738792919
344,pauini,-7.7136,-66.9764,22.73,98,100,1.43,BR,1738792920
345,sirte,31.2089,16.5887,15.38,73,97,3.82,LY,1738792923
346,back mountain,41.3359,-75.9963,-2.09,49,100,1.43,US,1738792924
347,tierp,60.3427,17.5181,-2.24,96,2,1.25,SE,1738792925
348,purranque,-40.9167,-73.1667,20.16,51,41,3.39,CL,1738792926
349,hauterive,46.0901,3.4459,1.72,91,43,1.04,FR,1738792927
350,talara,-4.5772,-81.2719,28.42,61,0,5.66,PE,1738792929
351,papao,-17.75,-149.55,27.31,77,82,5.96,PF,1738792930
352,san antonio de pale,-1.4014,5.6325,27.44,79,100,3.07,GQ,1738792932
353,propria,-10.2111,-36.8403,26.18,73,100,3.77,BR,1738792933
354,clayton le moors,53.7667,-2.3833,2.57,97,0,0.89,GB,1738792935
355,sandnessjoen,66.0217,12.6316,5.23,70,20,6.17,NO,1738792936
356,st. john's,47.5649,-52.7093,-8.25,73,75,10.29,CA,1738792897
357,taoudenni,22.6783,-3.9836,17.47,16,0,6.15,ML,1738792938
358,xinyuan,37.3,99.0,-12.94,41,100,2.72,CN,1738792941
359,leesville,31.1435,-93.261,24.24,79,95,2.5,US,1738792942
360,uliastay,47.7417,96.8444,-25.73,90,15,2.78,MN,1738792943
361,kirsanov,52.6549,42.7224,-10.02,97,79,1.96,RU,1738792944
362,holdenville,35.0804,-96.3992,12.06,84,100,5.08,US,1738792946
363,nadi,-17.8,177.4167,26.0,83,75,4.12,FJ,1738792947
364,kill devil hills,36.0307,-75.676,7.21,74,100,6.69,US,1738792948
365,healesville,-37.65,145.5167,21.96,64,13,0.27,AU,1738792949
366,kingisepp,59.3733,28.6134,-2.46,93,100,4.08,RU,1738792950
367,shalqar,47.8333,59.6,-10.47,90,55,5.22,KZ,1738792951
368,malabo,3.75,8.7833,27.55,79,93,4.13,GQ,1738792953
369,colonia,50.9333,6.95,3.92,92,100,0.51,DE,1738792954
370,wabag,-5.4781,143.7021,14.89,97,99,0.46,PG,1738792955
371,huanggang,23.677,116.9996,13.6,56,100,2.54,CN,1738792956
372,usinsk,65.9939,57.5281,-13.61,97,70,4.53,RU,1738792958
373,thinadhoo,0.5333,72.9333,27.25,70,59,4.32,MV,1738792959
374,asyqata,40.8994,68.3611,5.67,49,100,1.77,KZ,1738792960
375,valdivia,-39.8142,-73.2459,22.05,67,7,3.27,CL,1738792961
376,prabumulih,-3.45,104.25,22.9,95,94,1.64,ID,1738792962
377,mollendo,-17.0231,-72.0147,22.36,81,36,2.52,PE,1738792964
378,puerto rico,-26.796,-55.024,31.66,53,73,1.37,AR,1738792965
379,nizhneudinsk,54.9076,99.0276,-14.54,96,100,0.65,RU,1738792966
380,nova sintra,14.8667,-24.7167,22.4,71,1,8.68,CV,1738792967
381,puerto cabezas,14.0351,-83.3888,29.98,79,20,8.23,NI,1738792969
382,svetlyy,54.675,20.1347,4.99,92,100,3.47,RU,1738792970
383,micheweni,-4.9667,39.8333,26.53,80,98,6.96,TZ,1738792971
384,hurricane,37.1753,-113.2899,20.26,41,9,2.64,US,1738792974
385,greenville,35.6127,-77.3663,8.4,69,100,4.12,US,1738792975
386,nanning,22.8167,108.3167,10.25,79,100,2.26,CN,1738792976
387,ringim,12.1548,9.1619,21.16,10,0,3.69,NG,1738792977
388,conduaga,8.862,117.4893,24.41,81,73,0.8,PH,1738792978
389,plastun,44.7561,136.2939,-14.18,58,100,7.05,RU,1738792979
390,simpang,-1.2667,104.0833,23.59,96,95,1.25,ID,1738792981
391,sengkang,-4.1279,120.0297,25.19,88,100,1.98,ID,1738792982
392,buala,-8.145,159.5921,28.74,75,100,2.81,SB,1738792983
393,aksu,41.1231,80.2644,-5.74,69,100,1.18,CN,1738792827
394,yanam,16.7333,82.2167,19.15,92,86,0.83,IN,1738792985
395,tqvarch'eli,42.8404,41.6801,2.83,94,100,0.49,GE,1738792987
396,praia da vitoria,38.7333,-27.0667,18.14,88,20,4.03,PT,1738792988
397,lintong,34.378,109.2089,1.54,45,100,1.1,CN,1738792989
398,queenstown,-31.8976,26.8753,14.89,89,100,2.86,ZA,1738792990
399,beysehir,37.6773,31.7246,-3.61,83,53,10.94,TR,1738792991
400,olyokminsk,60.3736,120.4264,-41.03,100,87,0.44,RU,1738792993
401,saint-pierre,-21.3393,55.4781,26.82,83,20,2.06,RE,1738792994
402,saint-jean-de-monts,46.7833,-2.0667,8.59,89,100,4.15,FR,1738792995
403,nishinoomote,30.7333,131.0,8.09,68,100,12.84,JP,1738792996
404,antofagasta,-23.65,-70.4,22.6,81,35,2.44,CL,1738792564
405,bodo,67.28,14.405,4.32,81,75,11.32,NO,1738792999
406,carutapera,-1.195,-46.02,24.84,91,100,3.13,BR,1738793000
407,kingscliff,-28.2667,153.5667,24.97,83,86,3.09,AU,1738793001
408,khandyga,62.6667,135.6,-43.32,100,50,0.44,RU,1738793002
409,ulcinj,41.9294,19.2244,8.14,56,0,4.24,ME,1738793004
410,tacoronte,28.4769,-16.4102,14.53,85,75,3.58,ES,1738793005
411,ornskoldsvik,63.2909,18.7153,0.53,93,15,3.09,SE,1738793006
412,lauro de freitas,-12.8944,-38.3272,28.01,74,20,4.12,BR,1738793007
413,dazhong,33.1997,120.4578,-5.06,41,27,1.92,CN,1738793008
414,kone,-21.0595,164.8658,29.05,73,96,2.24,NC,1738793010
415,luau,-10.7073,22.2247,18.32,86,100,1.42,AO,1738793011
416,sur,22.5667,59.5289,18.94,56,57,1.74,OM,1738793012
417,leshan,29.5623,103.7639,7.25,86,100,2.88,CN,1738793013
418,tsiombe,-25.3,45.4833,25.23,93,45,3.71,MG,1738793014
419,meadow lakes,61.6247,-149.6011,-5.5,80,0,0.45,US,1738792439
420,argo,37.6333,22.7333,5.27,75,0,1.48,GR,1738793017
421,pavlovsk,50.4578,40.1081,-8.29,96,10,1.26,RU,1738793019
422,chibougamau,49.9168,-74.3659,-15.21,66,100,8.23,CA,1738792441
423,khovd,48.0056,91.6419,-17.61,62,0,3.14,MN,1738793022
424,hastings,50.8552,0.5729,6.55,81,100,3.98,GB,1738793023
425,akrehamn,59.2667,5.1833,6.14,81,20,3.6,NO,1738793024
426,tukrah,32.5341,20.5791,12.39,78,100,5.32,LY,1738793026
427,namibe,-15.1961,12.1522,23.31,83,100,2.17,AO,1738793027
428,baruun-urt,46.6806,113.2792,-22.29,86,100,6.21,MN,1738793028
429,harlingen,26.1906,-97.6961,29.05,72,0,10.29,US,1738793029
430,naze,28.3667,129.4833,10.51,53,97,7.62,JP,1738793030
431,saynshand,44.8824,110.1163,-21.25,59,100,11.32,MN,1738793032
432,biloela,-24.4167,150.5,22.45,85,100,3.06,AU,1738792803
433,imbituba,-28.24,-48.6703,26.48,76,56,6.69,BR,1738793034
434,huarmey,-10.0681,-78.1522,23.84,75,74,3.31,PE,1738793035
435,sant lluis,39.8526,4.2594,9.22,81,75,2.06,ES,1738793036
436,bowling green,36.9903,-86.4436,8.96,87,100,1.54,US,1738792953
437,arvi,20.9833,78.2333,21.68,43,1,4.35,IN,1738793039
438,watampone,-4.5386,120.3279,25.25,79,100,2.2,ID,1738793040
439,malango,-2.9627,119.9001,18.8,92,100,1.56,ID,1738793041
440,sao gabriel da cachoeira,-0.1303,-67.0892,22.79,100,100,0.32,BR,1738793042
441,pangody,65.85,74.4859,-17.28,98,99,3.55,RU,1738793043
442,dartmouth,44.6713,-63.5772,-11.25,65,75,8.75,CA,1738793045
443,karratha,-20.7377,116.8463,30.1,71,63,4.01,AU,1738793046
444,newman,37.3138,-121.0208,13.35,50,0,3.13,US,1738793047
445,istgah-e rah ahan-e garmsar,35.2346,52.3094,9.7,30,100,2.96,IR,1738793048
446,saint-paul,-21.0096,55.2707,27.05,92,51,2.43,RE,1738793050
447,kalianget,-7.05,113.9333,26.01,86,100,6.38,ID,1738793051
448,nicoya,10.1483,-85.452,31.74,45,54,4.59,CR,1738793052
449,chokwe,-24.5333,32.9833,25.14,69,0,3.12,MZ,1738793053
450,carbonear,47.7332,-53.2148,-8.81,71,99,8.46,CA,1738793054
451,shanghai,31.2222,121.4581,-0.08,69,0,1.0,CN,1738792872
452,coos bay,43.3665,-124.2179,6.84,87,100,5.14,US,1738792926
453,dunay,42.8803,132.3375,-13.13,74,73,13.91,RU,1738793058
454,ozernyy,55.5802,32.4127,-1.48,72,100,2.67,RU,1738793059
455,kapa'a,22.0752,-159.319,24.71,71,75,4.12,US,1738793060
456,lincoln,40.8,-96.667,-3.05,93,100,2.06,US,1738793062
457,rawson,-43.3002,-65.1023,28.16,36,75,9.77,AR,1738793063
458,lerwick,60.1545,-1.1494,7.32,80,7,8.75,GB,1738793064
459,mount isa,-20.7333,139.5,26.87,78,100,2.57,AU,1738793065
460,crucecita,-28.95,-58.9833,41.31,18,0,3.82,AR,1738793068
461,tonkino,57.3726,46.4629,-12.83,96,92,1.88,RU,1738793069
462,massawa,15.6097,39.45,26.02,69,0,2.65,ER,1738793070
463,kani keli,-12.9536,45.1033,27.59,75,100,8.61,YT,1738793072
464,staraya russa,57.9944,31.3608,-6.37,89,100,2.75,RU,1738793073
465,yemva,62.59,50.8594,-15.14,98,65,1.58,RU,1738793074
466,vila franca do campo,37.7167,-25.4333,18.27,99,100,2.02,PT,1738793076
467,mournies,35.4764,24.0092,9.22,61,75,6.17,GR,1738793077
468,monrovia,6.3005,-10.7969,26.13,85,11,3.74,LR,1738793078
469,paros,37.0833,25.15,9.06,42,100,12.86,GR,1738793079
470,novyy urgal,51.0736,132.5642,-13.52,81,100,3.19,RU,1738793080
471,kristinestad,62.2743,21.376,1.66,86,24,4.89,FI,1738793081
472,aitape,-3.1374,142.3475,25.8,88,100,1.75,PG,1738793083
473,copala,16.65,-98.9833,28.57,56,0,3.35,MX,1738793084
474,salamanca,40.8333,-6.0,4.23,69,0,2.33,ES,1738793085
475,kerikeri,-35.2268,173.9474,21.72,48,85,0.6,NZ,1738793086
476,okhotsk,59.3833,143.3,-22.36,67,22,7.13,RU,1738793087
477,faya-largeau,17.9257,19.1043,21.05,21,0,11.58,TD,1738793089
478,ghat,24.9647,10.1728,16.63,30,88,3.33,LY,1738793090
479,lamar,33.6668,-95.5836,21.95,80,100,5.66,US,1738793091
480,wakkanai,45.4094,141.6739,2.28,66,100,7.21,JP,1738793092
481,kyzyl-mazhalyk,51.1333,90.6,-22.99,87,2,0.23,RU,1738793093
482,beira,-19.8436,34.8389,25.31,76,6,3.21,MZ,1738793095
483,alta,69.9689,23.2717,-8.41,86,20,1.03,NO,1738793096
484,yokadouma,3.5167,15.05,24.75,38,99,0.81,CM,1738793097
485,taroa,8.7058,171.2275,26.89,85,59,10.02,MH,1738793098
486,champerico,14.3,-91.9167,29.65,61,0,5.89,GT,1738793100
487,bulgan,48.8125,103.5347,-27.03,91,81,2.74,MN,1738793101
488,san jose,37.3394,-121.895,15.42,50,0,2.68,US,1738792825
489,kerema,-7.9631,145.7785,26.83,82,100,4.87,PG,1738793103
490,nieuw amsterdam,5.8833,-55.0833,26.01,89,40,2.57,SR,1738793104
491,caleta de carquin,-11.0925,-77.6267,23.79,75,83,3.74,PE,1738793105
492,tvoroyri,61.5556,-6.8111,8.51,84,84,18.07,FO,1738793107
493,ironwood,46.4547,-90.171,-4.55,36,75,3.6,US,1738793108
494,xinyu,27.8043,114.9334,7.04,71,88,1.39,CN,1738793110
495,saint croix,17.7397,-64.7388,26.25,86,40,5.14,VI,1738793111
496,el gouna,27.3942,33.6782,18.05,51,52,10.17,EG,1738793112
497,essaouira,31.5125,-9.77,16.72,59,0,3.09,MA,1738793114
498,lazaro cardenas,17.9583,-102.2,28.59,54,0,4.26,MX,1738793115
499,pundong,-7.9522,110.3486,23.8,93,53,3.03,ID,1738793116
500,esqueda,30.7167,-109.5833,25.3,8,0,5.7,MX,1738793117
501,pangai,-19.8,-174.35,27.06,78,100,4.63,TO,1738793118
502,qandala,11.472,49.8728,21.63,75,51,1.69,SO,1738793121
503,conceicao da barra,-18.5933,-39.7322,25.61,79,71,3.38,BR,1738793122
504,mirny,62.5353,113.9611,-44.33,100,66,1.37,RU,1738793123
505,aykhal,66.0,111.5,-25.03,100,99,2.07,RU,1738793125
506,visby,57.6409,18.296,3.12,93,0,1.03,SE,1738793126
507,pascagoula,30.3658,-88.5561,22.0,78,75,4.63,US,1738793127
508,khunti,23.0833,85.2833,19.06,54,4,3.7,IN,1738793128
509,amalapuram,16.5833,82.0167,19.58,93,74,0.75,IN,1738793129
510,chemolgan,43.1897,76.5292,-7.58,63,13,2.79,KZ,1738793131
511,ulladulla,-35.35,150.4667,22.55,74,32,0.81,AU,1738793132
512,callao,-12.0667,-77.15,25.16,73,0,7.72,PE,1738793133
513,revelstoke,50.9832,-118.2023,-8.99,48,100,2.06,CA,1738793134
514,kiiminki,65.1314,25.7974,0.27,98,100,4.18,FI,1738793135
515,azna,33.6095,48.9307,4.35,45,4,1.58,IR,1738793136
516,aba,5.1066,7.3667,27.37,73,79,2.55,NG,1738793138
517,kaspiyskiy,45.3929,47.3707,-0.72,78,83,5.74,RU,1738793139
518,laguna,38.421,-121.4238,14.02,45,0,5.14,US,1738793140
519,mariental,-24.6333,17.9667,22.0,69,90,4.55,NA,1738793141
520,pisco,-13.7,-76.2167,24.03,78,20,7.72,PE,1738793142
521,mulayjah,27.271,48.4242,20.25,10,100,7.94,SA,1738793144
522,hovd,48.0056,91.6419,-17.61,62,0,3.14,MN,1738793022
523,matamey,13.4231,8.4749,20.51,8,3,4.08,NE,1738793146
524,kokopo,-4.352,152.2633,26.88,75,92,2.27,PG,1738793147
525,smiths station,32.5401,-85.0985,24.42,58,40,3.6,US,1738793148
526,luwuk,-0.9516,122.7875,22.53,92,100,1.24,ID,1738793151
527,winnemucca,40.973,-117.7357,6.03,36,0,3.6,US,1738792951
528,bondo,3.8146,23.6866,24.78,36,91,0.02,CD,1738793153
529,bamboo flat,11.7,92.7167,24.05,94,40,1.03,IN,1738793154
530,dassa-zoume,7.75,2.1833,28.67,61,6,3.98,BJ,1738793156
531,andergrove,-21.0833,149.1833,24.97,87,100,4.31,AU,1738793157
532,nova vicosa,-17.8919,-39.3719,25.92,83,75,4.28,BR,1738793158
533,mukharram al fawqani,34.8151,37.0861,8.16,82,100,7.23,SY,1738793160
534,shevchenko,48.5,35.0,-1.5,91,83,1.5,UA,1738793163
535,togur,58.3631,82.8265,-25.46,100,36,1.82,RU,1738793164
536,kayes,14.0,-11.0,24.71,13,60,2.41,ML,1738793165
537,kralendijk,12.15,-68.2667,27.99,69,40,6.69,BQ,1738793167
538,klaksvik,62.2266,-6.589,7.89,85,99,18.13,FO,1738793168
539,karwar,14.8,74.1333,23.52,64,2,1.84,IN,1738793169
540,namtsy,62.7161,129.6658,-41.68,99,50,1.67,RU,1738793170
541,idri,27.5,13.2667,14.77,33,100,4.69,LY,1738793171
542,vernon,50.2581,-119.2691,-7.36,45,28,1.34,CA,1738793173
543,tidjikja,18.5564,-11.4271,18.72,15,0,5.14,MR,1738793174
544,dalhousie,32.5333,75.9833,0.18,56,7,4.49,IN,1738793175
545,kirensk,57.7853,108.1119,-41.16,100,73,0.98,RU,1738793176
546,borodinskiy,53.9986,37.8179,-1.94,77,99,3.19,RU,1738793177
547,vincennes,48.85,2.4333,4.97,95,100,3.09,FR,1738793178
548,coquimbo,-29.9533,-71.3436,19.85,72,0,4.12,CL,1738793180
549,erenhot,43.6475,111.9767,-17.52,65,100,8.51,CN,1738793181
550,westport,41.1415,-73.3579,0.01,43,0,3.09,US,1738793182
551,uxbridge,42.0773,-71.6295,-2.66,42,3,0.45,US,1738793183
552,mazatlan,23.2167,-106.4167,26.98,62,0,3.6,MX,1738792957
553,novaya igirma,57.1334,103.9112,-27.02,97,100,1.25,RU,1738793186
554,dire dawa,9.5931,41.8661,18.88,31,11,3.09,ET,1738793187
555,kenai,60.5544,-151.2583,-5.48,83,0,0.0,US,1738793188
556,severo-yeniseyskiy,60.3725,93.0408,-25.22,100,100,0.44,RU,1738793189
557,santana,-0.0583,-51.1817,28.1,83,40,3.6,BR,1738793190
558,regina,50.4501,-104.6178,-15.94,83,100,4.63,CA,1738792918
559,yarkovo,57.4028,67.0786,-14.32,100,93,1.23,RU,1738793193
560,uyuni,-20.4597,-66.825,18.83,21,4,10.73,BO,1738793194
561,revda,56.801,59.9303,-9.43,98,98,2.17,RU,1738793196
562,kuqa,41.7278,82.9364,-7.73,81,100,1.72,CN,1738793198
563,tan-tan,28.438,-11.1032,15.31,58,0,6.28,MA,1738793199
564,la manga del mar menor,37.6413,-0.7165,10.15,63,6,1.37,ES,1738793200
565,al fulah,11.7329,28.3579,22.54,17,42,6.25,SD,1738793202
566,tossa de mar,41.7325,2.9338,6.9,89,3,2.13,ES,1738793203
567,benguela,-12.5763,13.4055,25.98,83,65,1.24,AO,1738793204
568,arkalyk,50.2486,66.9114,-11.7,93,37,8.54,KZ,1738793205
569,ritchie,-29.038,24.6028,23.21,43,70,3.07,ZA,1738793206
570,port blair,11.6667,92.75,23.99,84,0,3.77,IN,1738793207
571,northam,51.0333,-4.2167,3.22,96,77,0.89,GB,1738793209
572,safi,32.1667,-8.8333,11.07,71,1,3.88,MA,1738793210
573,port hueneme,34.1478,-119.1951,17.69,91,100,4.12,US,1738793211
574,jijiga,9.35,42.8,15.56,49,10,1.52,ET,1738793212
575,at taj,24.2049,23.2857,13.08,49,100,4.7,LY,1738793213
